{"type":"FeatureCollection","features":[{"type":"Feature","id":"okullar.1","geometry":{"type":"Point","coordinates":[32.91831286,39.89920278,0]},"geometry_name":"geom","properties":{"name":"Mehmet Memişoğulları İlkokulu","descriptio":"Ege, 788. Cd No:27, 06270 Mamak/Ankara","timestamp":null,"begin":null,"end":null,"altitudemo":null,"tessellate":-1,"extrude":0,"visibility":-1,"draworder":null,"icon":null}},{"type":"Feature","id":"okullar.2","geometry":{"type":"Point","coordinates":[32.92368915,39.89940987,0]},"geometry_name":"geom","properties":{"name":"Kınık İlkokulu","descriptio":"Cengizhan, 827. Sk. No:4, 06480 Mamak/Ankara","timestamp":null,"begin":null,"end":null,"altitudemo":null,"tessellate":-1,"extrude":0,"visibility":-1,"draworder":null,"icon":null}},{"type":"Feature","id":"okullar.3","geometry":{"type":"Point","coordinates":[32.91153141,39.91073023,0]},"geometry_name":"geom","properties":{"name":"Ali Kuşçu ilkokulu","descriptio":"General Zeki Doğan, Mahallesi, 551. Cd. No:5, 06630 Mamak/Ankara","timestamp":null,"begin":null,"end":null,"altitudemo":null,"tessellate":-1,"extrude":0,"visibility":-1,"draworder":null,"icon":null}},{"type":"Feature","id":"okullar.4","geometry":{"type":"Point","coordinates":[32.90855286,39.9120471,0]},"geometry_name":"geom","properties":{"name":"Yedi Renk Anaokulu","descriptio":"General Zeki Doğan, 542. Sk., 06630 Mamak/Ankara","timestamp":null,"begin":null,"end":null,"altitudemo":null,"tessellate":-1,"extrude":0,"visibility":-1,"draworder":null,"icon":null}},{"type":"Feature","id":"okullar.5","geometry":{"type":"Point","coordinates":[32.90484958,39.90762533,0]},"geometry_name":"geom","properties":{"name":"Selçuklu İlköğretim Okulu","descriptio":"Mutlu, 717. Sk. No:87, 06630 Mamak/Ankara","timestamp":null,"begin":null,"end":null,"altitudemo":null,"tessellate":-1,"extrude":0,"visibility":-1,"draworder":null,"icon":null}},{"type":"Feature","id":"okullar.6","geometry":{"type":"Point","coordinates":[32.90971642,39.89827222,0]},"geometry_name":"geom","properties":{"name":"METEHAN İLKOKULU","descriptio":"Ege, 763. Cd. No.117, 06630 Mamak/Ankara","timestamp":null,"begin":null,"end":null,"altitudemo":null,"tessellate":-1,"extrude":0,"visibility":-1,"draworder":null,"icon":null}},{"type":"Feature","id":"okullar.7","geometry":{"type":"Point","coordinates":[32.89517907,39.93108886,0]},"geometry_name":"geom","properties":{"name":"Ortatepe İmam Hatip Ortaokulu","descriptio":"Saimekadın, Ortatepe Sk. No:1, 06620 Mamak/Ankara","timestamp":null,"begin":null,"end":null,"altitudemo":null,"tessellate":-1,"extrude":0,"visibility":-1,"draworder":null,"icon":null}},{"type":"Feature","id":"okullar.8","geometry":{"type":"Point","coordinates":[32.92361332,39.89611667,0]},"geometry_name":"geom","properties":{"name":"İngiliz Kültür Kreş ve Gündüz Bakimevi","descriptio":"Cengizhan, Sultan Fatih Cd., 06480 Mamak/Ankara","timestamp":null,"begin":null,"end":null,"altitudemo":null,"tessellate":-1,"extrude":0,"visibility":-1,"draworder":null,"icon":null}},{"type":"Feature","id":"okullar.9","geometry":{"type":"Point","coordinates":[32.92822489,39.89826944,0]},"geometry_name":"geom","properties":{"name":"Ali Şir Nevai Ortaokulu","descriptio":"Durali Alıç, Şehitler Cd. No:85, 06480 Mamak/Ankara","timestamp":null,"begin":null,"end":null,"altitudemo":null,"tessellate":-1,"extrude":0,"visibility":-1,"draworder":null,"icon":null}},{"type":"Feature","id":"okullar.10","geometry":{"type":"Point","coordinates":[32.93179333,39.89932778,0]},"geometry_name":"geom","properties":{"name":"Ergenekon İlkokulu","descriptio":"Durali Alıç, Durali Alıç Mh, Pk:06480, 953. Sk. No:17, 06480 Mamak","timestamp":null,"begin":null,"end":null,"altitudemo":null,"tessellate":-1,"extrude":0,"visibility":-1,"draworder":null,"icon":null}},{"type":"Feature","id":"okullar.11","geometry":{"type":"Point","coordinates":[32.93281906,39.89625,0]},"geometry_name":"geom","properties":{"name":"Mektebim Koleji Mamak Kampusu","descriptio":"Durali Alıç, 06480 Mamak/Ankara","timestamp":null,"begin":null,"end":null,"altitudemo":null,"tessellate":-1,"extrude":0,"visibility":-1,"draworder":null,"icon":null}},{"type":"Feature","id":"okullar.12","geometry":{"type":"Point","coordinates":[32.91958804,39.90401636,0]},"geometry_name":"geom","properties":{"name":"Demokrasi Ortaokulu","descriptio":"Cengizhan, 866. Sk. No: 5, 06480 Mamak/Ankara","timestamp":null,"begin":null,"end":null,"altitudemo":null,"tessellate":-1,"extrude":0,"visibility":-1,"draworder":null,"icon":null}},{"type":"Feature","id":"okullar.13","geometry":{"type":"Point","coordinates":[32.92834435,39.90959167,0]},"geometry_name":"geom","properties":{"name":"Ege İlkokulu","descriptio":"Fahri Korutürk, A Blok, Durali Alıç Mh Şehitler Cd. No:35 Pk:06480, Mh. 905. Sk No:1 D:B Blok, 06480 Mamak/Ankara","timestamp":null,"begin":null,"end":null,"altitudemo":null,"tessellate":-1,"extrude":0,"visibility":-1,"draworder":null,"icon":null}},{"type":"Feature","id":"okullar.14","geometry":{"type":"Point","coordinates":[32.91951024,39.91136111,0]},"geometry_name":"geom","properties":{"name":"Ege anadolu lisesi","descriptio":"Fahri Korutürk, 686. Sk. NO:3, 06480 Mamak/Ankara","timestamp":null,"begin":null,"end":null,"altitudemo":null,"tessellate":-1,"extrude":0,"visibility":-1,"draworder":null,"icon":null}},{"type":"Feature","id":"okullar.15","geometry":{"type":"Point","coordinates":[32.92404419,39.91471944,0]},"geometry_name":"geom","properties":{"name":"Naşide Halil Gelendost İlkokulu","descriptio":"Şirintepe, 1031. Cd. No:110/AB, 06480 Mamak/Ankara","timestamp":null,"begin":null,"end":null,"altitudemo":null,"tessellate":-1,"extrude":0,"visibility":-1,"draworder":null,"icon":null}},{"type":"Feature","id":"okullar.16","geometry":{"type":"Point","coordinates":[32.9199321,39.92032222,0]},"geometry_name":"geom","properties":{"name":"Türkoğlu İlkokulu","descriptio":"Şirintepe Mh. Hocalı Cad.No:72 Pk:06470, 06470 Mamak","timestamp":null,"begin":null,"end":null,"altitudemo":null,"tessellate":-1,"extrude":0,"visibility":-1,"draworder":null,"icon":null}},{"type":"Feature","id":"okullar.17","geometry":{"type":"Point","coordinates":[32.90981331,39.92130327,0]},"geometry_name":"geom","properties":{"name":"Süleyman Nazif İlkokulu","descriptio":"Tuzluçayır, 603. no, 592. Sk., 06470 Mamak/Ankara","timestamp":null,"begin":null,"end":null,"altitudemo":null,"tessellate":-1,"extrude":0,"visibility":-1,"draworder":null,"icon":null}},{"type":"Feature","id":"okullar.18","geometry":{"type":"Point","coordinates":[32.90716406,39.92530556,0]},"geometry_name":"geom","properties":{"name":"Tuzluçayır İöo","descriptio":"Çağlayan, 299. Sk. No:1, 06470 Mamak/Ankara","timestamp":null,"begin":null,"end":null,"altitudemo":null,"tessellate":-1,"extrude":0,"visibility":-1,"draworder":null,"icon":null}},{"type":"Feature","id":"okullar.19","geometry":{"type":"Point","coordinates":[32.90277869,39.92486111,0]},"geometry_name":"geom","properties":{"name":"Tuzluçayır Anadolu Lisesi","descriptio":"Aşık Veysel, Tıp Fakültesi Cad. No:152, 06620 Mamak/Ankara","timestamp":null,"begin":null,"end":null,"altitudemo":null,"tessellate":-1,"extrude":0,"visibility":-1,"draworder":null,"icon":null}},{"type":"Feature","id":"okullar.20","geometry":{"type":"Point","coordinates":[32.90582303,39.92769402,0]},"geometry_name":"geom","properties":{"name":"Sibel İsmet Çatık Ortaokulu","descriptio":"Tuzluçayır, Süleyman Ayten Cd. No:13, 06620 Mamak/Ankara","timestamp":null,"begin":null,"end":null,"altitudemo":null,"tessellate":-1,"extrude":0,"visibility":-1,"draworder":null,"icon":null}},{"type":"Feature","id":"okullar.21","geometry":{"type":"Point","coordinates":[32.89446548,39.92751667,0]},"geometry_name":"geom","properties":{"name":"Abidinpaşa Anadolu Lisesi","descriptio":"Saimekadın, Cami Sk. No:48/2, 06620 Mamak/Ankara","timestamp":null,"begin":null,"end":null,"altitudemo":null,"tessellate":-1,"extrude":0,"visibility":-1,"draworder":null,"icon":null}},{"type":"Feature","id":"okullar.22","geometry":{"type":"Point","coordinates":[32.89978263,39.92955278,0]},"geometry_name":"geom","properties":{"name":"Suzan Mehmet Gönç Mesleki ve Teknik Anadolu Lisesi","descriptio":"39.929553728987585, 32.89978262605879","timestamp":null,"begin":null,"end":null,"altitudemo":null,"tessellate":-1,"extrude":0,"visibility":-1,"draworder":null,"icon":null}},{"type":"Feature","id":"okullar.23","geometry":{"type":"Point","coordinates":[32.88808666,39.93126111,0]},"geometry_name":"geom","properties":{"name":"Başkent Anadolu Lisesi","descriptio":"Balkiraz Mh, Tıp Fakültesi, Saraycık Sk. No:4, 06620 Mamak/Ankara","timestamp":null,"begin":null,"end":null,"altitudemo":null,"tessellate":-1,"extrude":0,"visibility":-1,"draworder":null,"icon":null}},{"type":"Feature","id":"okullar.24","geometry":{"type":"Point","coordinates":[32.88217225,39.9291962,0]},"geometry_name":"geom","properties":{"name":"Ertuğrulgazi İlköğretim Okulu","descriptio":"Cebeci, Şht. Hasan Karaca Sk. No:17, 06590 Çankaya/Ankara","timestamp":null,"begin":null,"end":null,"altitudemo":null,"tessellate":-1,"extrude":0,"visibility":-1,"draworder":null,"icon":null}},{"type":"Feature","id":"okullar.25","geometry":{"type":"Point","coordinates":[32.88677817,39.92525556,0]},"geometry_name":"geom","properties":{"name":"Ahmet Hızal İlköğretim Okulu","descriptio":"Abidinpaşa, Kırkağaç Sk. No:18, 06620 Mamak/Ankara","timestamp":null,"begin":null,"end":null,"altitudemo":null,"tessellate":-1,"extrude":0,"visibility":-1,"draworder":null,"icon":null}},{"type":"Feature","id":"okullar.26","geometry":{"type":"Point","coordinates":[32.88961311,39.92345,0]},"geometry_name":"geom","properties":{"name":"MAMAK ŞEHİT MEKAN ŞAHİN İMAM HATİP ORTAOKULU","descriptio":"Abidinpaşa Mah, Karaşar Cad No:31, 06620 Mamak/Ankara","timestamp":null,"begin":null,"end":null,"altitudemo":null,"tessellate":-1,"extrude":0,"visibility":-1,"draworder":null,"icon":null}},{"type":"Feature","id":"okullar.27","geometry":{"type":"Point","coordinates":[32.88647437,39.91993056,0]},"geometry_name":"geom","properties":{"name":"Oğuz Kaan İlkokulu","descriptio":"Akdere, Şht. Ayhan Babadağ Cd. No:8, 06630 Mamak/Ankara","timestamp":null,"begin":null,"end":null,"altitudemo":null,"tessellate":-1,"extrude":0,"visibility":-1,"draworder":null,"icon":null}},{"type":"Feature","id":"okullar.28","geometry":{"type":"Point","coordinates":[32.88753529,39.91933134,0]},"geometry_name":"geom","properties":{"name":"Prof. Dr. Rağıp Üner Mesleki ve Teknik Anadolu Lisesi","descriptio":"Akdere, 393. Sk. 30. Sk D:7, 06101 Mamak/Ankara","timestamp":null,"begin":null,"end":null,"altitudemo":null,"tessellate":-1,"extrude":0,"visibility":-1,"draworder":null,"icon":null}},{"type":"Feature","id":"okullar.29","geometry":{"type":"Point","coordinates":[32.89773771,39.91953333,0]},"geometry_name":"geom","properties":{"name":"75. Yıl İlkokulu","descriptio":"Peyami Sefa, 344. Cd. No:61, 06630 Mamak/Ankara","timestamp":null,"begin":null,"end":null,"altitudemo":null,"tessellate":-1,"extrude":0,"visibility":-1,"draworder":null,"icon":null}},{"type":"Feature","id":"okullar.30","geometry":{"type":"Point","coordinates":[32.89556921,39.91719988,0]},"geometry_name":"geom","properties":{"name":"Kazım Orbay İlkokulu","descriptio":"Kazım Orbay, 341. Sk. No:4, 06630 Mamak/Ankara","timestamp":null,"begin":null,"end":null,"altitudemo":null,"tessellate":-1,"extrude":0,"visibility":-1,"draworder":null,"icon":null}},{"type":"Feature","id":"okullar.31","geometry":{"type":"Point","coordinates":[32.89541505,39.91661944,0]},"geometry_name":"geom","properties":{"name":"Çağrıbey Anadolu Lisesi","descriptio":"Kazım Orbay, 342. Cd. No:46, 06630 Mamak/Ankara","timestamp":null,"begin":null,"end":null,"altitudemo":null,"tessellate":-1,"extrude":0,"visibility":-1,"draworder":null,"icon":null}},{"type":"Feature","id":"okullar.32","geometry":{"type":"Point","coordinates":[32.89423041,39.91742222,0]},"geometry_name":"geom","properties":{"name":"Manolya Anaokulu","descriptio":"Kazım Orbay, 342. Cd. No:48, 06630 Mamak/Ankara","timestamp":null,"begin":null,"end":null,"altitudemo":null,"tessellate":-1,"extrude":0,"visibility":-1,"draworder":null,"icon":null}},{"type":"Feature","id":"okullar.33","geometry":{"type":"Point","coordinates":[32.89281546,39.91625278,0]},"geometry_name":"geom","properties":{"name":"Rotary Yeşiltepe Ortaokulu","descriptio":"Akdere, Mehmet Ali Altın Cd No:1, 06630 Mamak/Ankara","timestamp":null,"begin":null,"end":null,"altitudemo":null,"tessellate":-1,"extrude":0,"visibility":-1,"draworder":null,"icon":null}},{"type":"Feature","id":"okullar.34","geometry":{"type":"Point","coordinates":[32.90378976,39.9161863,0]},"geometry_name":"geom","properties":{"name":"Şehit Hasan Altın Orta Okulu","descriptio":"General Zeki Doğan, 494. Sk. No:16, 06630 Mamak/Ankara","timestamp":null,"begin":null,"end":null,"altitudemo":null,"tessellate":-1,"extrude":0,"visibility":-1,"draworder":null,"icon":null}},{"type":"Feature","id":"okullar.35","geometry":{"type":"Point","coordinates":[32.91158173,39.90930416,0]},"geometry_name":"geom","properties":{"name":"Kuva-yi Milliye Ortaokulu","descriptio":"General Zeki Doğan Mah., İmam Alim Sultan Cd. No:35, 06630 Mamak/Ankara","timestamp":null,"begin":null,"end":null,"altitudemo":null,"tessellate":-1,"extrude":0,"visibility":-1,"draworder":null,"icon":null}},{"type":"Feature","id":"okullar.36","geometry":{"type":"Point","coordinates":[32.90751465,39.91789167,0]},"geometry_name":"geom","properties":{"name":"Hurin Yavuzalp İlkokulu","descriptio":"General Zeki Doğan, 512. Sk. No:10, 06630, 06630 Mamak/Ankara","timestamp":null,"begin":null,"end":null,"altitudemo":null,"tessellate":-1,"extrude":0,"visibility":-1,"draworder":null,"icon":null}},{"type":"Feature","id":"okullar.37","geometry":{"type":"Point","coordinates":[32.90494684,39.917275,0]},"geometry_name":"geom","properties":{"name":"Özel Yeni Yaşam Anaokulu","descriptio":"General Zeki Doğan, General Zeki Doğan Park İçi Yolu, 06630 Mamak/Ankara","timestamp":null,"begin":null,"end":null,"altitudemo":null,"tessellate":-1,"extrude":0,"visibility":-1,"draworder":null,"icon":null}},{"type":"Feature","id":"okullar.38","geometry":{"type":"Point","coordinates":[32.88855951,39.92865103,0]},"geometry_name":"geom","properties":{"name":"Abidinpaşa İlkokulu","descriptio":"Abidinpaşa, Okul Sokağı No:8, 06620 Mamak/Ankara","timestamp":null,"begin":null,"end":null,"altitudemo":null,"tessellate":-1,"extrude":0,"visibility":-1,"draworder":null,"icon":null}},{"type":"Feature","id":"okullar.39","geometry":{"type":"Point","coordinates":[32.91861933,39.90995188,0]},"geometry_name":"geom","properties":{"name":"Habibe-Mehmet Kaya Anaokulu","descriptio":"Fahri Korutürk, Natoyolu Caddesı No:261, 06480 Mamak/Ankara","timestamp":null,"begin":null,"end":null,"altitudemo":null,"tessellate":-1,"extrude":0,"visibility":-1,"draworder":null,"icon":null}},{"type":"Feature","id":"okullar.40","geometry":{"type":"Point","coordinates":[32.89482731,39.92763621,0]},"geometry_name":"geom","properties":{"name":"Ayşe Zeki Sayan İlkokulu","descriptio":"Abidinpaşa, Cami Sk. No:48, 06620 Mamak/Ankara","timestamp":null,"begin":null,"end":null,"altitudemo":null,"tessellate":-1,"extrude":0,"visibility":-1,"draworder":null,"icon":null}},{"type":"Feature","id":"okullar.41","geometry":{"type":"Point","coordinates":[32.88747095,39.93032035,0]},"geometry_name":"geom","properties":{"name":"29 Ekim Okulu","descriptio":"Balkiraz, No:, Tıp Fakültesi Cd. No:77, 06620 Mamak/Ankara","timestamp":null,"begin":null,"end":null,"altitudemo":null,"tessellate":-1,"extrude":0,"visibility":-1,"draworder":null,"icon":null}},{"type":"Feature","id":"okullar.42","geometry":{"type":"Point","coordinates":[32.89173333,39.92769588,0]},"geometry_name":"geom","properties":{"name":"Abidinpaşa Teknik Ve Endüstri Meslek Lisesi","descriptio":"Aşık Veysel Mh, Tıp Fakültesi Cd. No, 06630 Mamak/Ankara","timestamp":null,"begin":null,"end":null,"altitudemo":null,"tessellate":-1,"extrude":0,"visibility":-1,"draworder":null,"icon":null}},{"type":"Feature","id":"okullar.43","geometry":{"type":"Point","coordinates":[32.90286063,39.9243173,0]},"geometry_name":"geom","properties":{"name":"Mehmet Çekiç Ortaokulu","descriptio":"Aşık Veysel, Tıp Fakültesi Cd. No: 152/B, 06620 Mamak/Ankara","timestamp":null,"begin":null,"end":null,"altitudemo":null,"tessellate":-1,"extrude":0,"visibility":-1,"draworder":null,"icon":null}},{"type":"Feature","id":"okullar.44","geometry":{"type":"Point","coordinates":[32.91865,39.9107048,0]},"geometry_name":"geom","properties":{"name":"Açıkalın İlkokulu","descriptio":"Fahri Korutürk, 686. Sk. No:9, 06480 Mamak/Ankara","timestamp":null,"begin":null,"end":null,"altitudemo":null,"tessellate":-1,"extrude":0,"visibility":-1,"draworder":null,"icon":null}}],"totalFeatures":44,"numberMatched":44,"numberReturned":44,"timeStamp":"2021-04-30T21:24:22.616Z","crs":{"type":"name","properties":{"name":"urn:ogc:def:crs:EPSG::4326"}}}